ENVI
description = package hyperbrick
wavelength units = nm
samples = 32
lines = 32
file type = ENVI
interleave = BSQ
byte order = 0
data type = 3
sequence name = anyseq
bands = 81
acquisition mode = 12
acquisition time = 2025-11-14T23:05:26.872835000+02:00
wavelength = {500.0,505.0,510.0,515.0,520.0,525.0,530.0,535.0,540.0,545.0,550.0,555.0,560.0,565.0,570.0,575.0,580.0,585.0,590.0,595.0,600.0,605.0,610.0,615.0,620.0,625.0,630.0,635.0,640.0,645.0,650.0,655.0,660.0,665.0,670.0,675.0,680.0,685.0,690.0,695.0,700.0,705.0,710.0,715.0,720.0,725.0,730.0,735.0,740.0,745.0,750.0,755.0,760.0,765.0,770.0,775.0,780.0,785.0,790.0,795.0,800.0,805.0,810.0,815.0,820.0,825.0,830.0,835.0,840.0,845.0,850.0,855.0,860.0,865.0,870.0,875.0,880.0,885.0,890.0,895.0,900.0}
fwhm = {0.0,0.0,8.0,8.0,9.0,8.0,8.0,8.0,8.0,8.0,8.0,8.0,8.0,8.0,8.0,7.0,7.0,7.0,7.0,7.0,7.0,7.0,9.0,9.0,9.0,9.0,8.0,10.0,8.0,11.0,8.0,8.0,9.0,8.0,8.0,9.0,8.0,8.0,8.0,8.0,6.0,6.0,6.0,6.0,6.0,6.0,6.0,6.0,6.0,6.0,6.0,6.0,6.0,6.0,6.0,7.0,7.0,7.0,7.0,7.0,7.0,7.0,7.0,7.0,11.0,11.0,11.0,11.0,11.0,11.0,11.0,11.0,10.0,10.0,10.0,10.0,10.0,10.0,10.0,10.0,10.0}
data gain values = {0.000000,0.000000,0.001086,0.001104,0.001147,0.001175,0.001160,0.001120,0.001137,0.001155,0.001152,0.001147,0.001168,0.001207,0.001238,0.001248,0.001248,0.001277,0.001338,0.001372,0.001362,0.001349,0.001097,0.001131,0.001182,0.001253,0.001413,0.001726,0.001977,0.002439,0.001997,0.001656,0.001605,0.001633,0.001698,0.001758,0.001776,0.001768,0.001740,0.001717,0.002088,0.002225,0.002339,0.002429,0.002459,0.002431,0.002388,0.002362,0.002390,0.002473,0.002576,0.002645,0.002670,0.002656,0.002618,0.002066,0.002090,0.002145,0.002222,0.002324,0.002426,0.002511,0.002572,0.002586,0.001856,0.001868,0.001911,0.001993,0.002105,0.002230,0.002338,0.002419,0.002478,0.002522,0.002564,0.002600,0.002653,0.002728,0.002836,0.002964,0.003128}
solar irradiance = {173.613861,173.613861,173.762375,173.762375,173.762375,173.762375,173.762375,173.762375,174.158417,174.158417,174.158417,174.158417,174.158417,174.158417,174.158417,174.158417,174.158417,173.762375,173.762375,173.762375,173.762375,173.762375,173.712860,173.712860,173.712860,173.712860,173.762375,173.762375,173.762375,173.762375,173.762375,173.762375,173.762375,173.762375,173.762375,173.762375,173.762375,173.762375,173.762375,173.762375,173.712860,173.712860,173.712860,173.663361,173.663361,173.663361,173.663361,173.663361,173.663361,173.663361,173.663361,173.663361,173.663361,173.613861,173.613861,173.762375,173.762375,173.762375,173.762375,173.762375,173.712860,173.712860,173.712860,173.712860,173.613861,173.613861,173.514847,173.514847,173.514847,173.514847,173.514847,173.514847,173.514847,173.514847,173.514847,173.712860,173.712860,173.712860,173.712860,173.712860,173.712860}
geo points = {1.0000,1.0000,nan,nan}
sequence order = {0,1,2,3,4,5,6,7,8,9,10,11,12,13,14,15,16,17,18,19,20,21,22,23,24,25,26,27,28,29,30,31,32,33,34,35,36,37,38,39,40,41,42,43,44,45,46,47,48,49,50,51,52,53,54,55,56,57,58,59,60,61,62,63,64,65,66,67,68,69,70,71,72,73,74,75,76,77,78,79,80}
order = {0,0,2,2,2,2,2,2,2,2,2,2,2,2,2,2,2,2,2,2,2,2,1,1,1,1,1,1,1,1,1,1,1,1,1,1,1,1,1,1,2,2,2,2,2,2,2,2,2,2,2,2,2,2,2,1,1,1,1,1,1,1,1,1,0,0,0,0,0,0,0,0,0,0,0,0,0,0,0,0,0}
timestamp = {0,9151000,893626000,920351000,946659000,987048000,1014019000,1040990000,1054475000,1067961000,1081446000,1094932000,1108417000,1121903000,1135388000,1148873000,1162359000,1175844000,1202815000,1229786000,1256757000,1297213000,734110000,760418000,773572000,786935000,800296000,813660000,827021000,840385000,853538000,866902000,880263000,893626000,906988000,933505000,960077000,973563000,1000534000,1027505000,1392310000,1405466000,1418827000,1432190000,1445551000,1458915000,1472276000,1485640000,1499001000,1512364000,1525726000,1539089000,1552451000,1565813000,1579175000,1189330000,1216301000,1243271000,1270242000,1283728000,1310699000,1324184000,1337669000,1351155000,520520000,533673000,547037000,560399000,573761000,587123000,600486000,613848000,627211000,640573000,653936000,667297000,680660000,694022000,707385000,720747000,747263000}
frame counter = {648,649,679,681,683,686,688,690,691,692,693,694,695,696,697,698,699,700,702,704,706,709,666,668,669,670,671,672,673,674,675,676,677,678,680,682,684,685,687,689,714,715,716,717,718,719,720,721,722,723,724,725,726,727,728,701,703,705,707,708,710,711,712,713,650,651,652,653,654,655,656,657,658,659,660,661,662,663,664,665,667}
integration time = {8.0,8.0,8.0,8.0,8.0,8.0,8.0,8.0,8.0,8.0,8.0,8.0,8.0,8.0,8.0,8.0,8.0,8.0,8.0,8.0,8.0,8.0,8.0,8.0,8.0,8.0,8.0,8.0,8.0,8.0,8.0,8.0,8.0,8.0,8.0,8.0,8.0,8.0,8.0,8.0,8.0,8.0,8.0,8.0,8.0,8.0,8.0,8.0,8.0,8.0,8.0,8.0,8.0,8.0,8.0,8.0,8.0,8.0,8.0,8.0,8.0,8.0,8.0,8.0,8.0,8.0,8.0,8.0,8.0,8.0,8.0,8.0,8.0,8.0,8.0,8.0,8.0,8.0,8.0,8.0,8.0}
gps = {"$GNRMC,110702,A,5204.5371,N,02111.1375,E,0.0619,23.978,291021,,*18","$GNRMC,110702,A,5204.5371,N,02111.1375,E,0.0619,23.978,291021,,*18","$GNRMC,110702,A,5204.5371,N,02111.1375,E,0.0619,23.978,291021,,*18","$GNRMC,110702,A,5204.5371,N,02111.1375,E,0.0619,23.978,291021,,*18","$GNRMC,110702,A,5204.5371,N,02111.1375,E,0.0619,23.978,291021,,*18","$GNRMC,110702,A,5204.5371,N,02111.1375,E,0.0619,23.978,291021,,*18","$GNRMC,110702,A,5204.5371,N,02111.1375,E,0.0619,23.978,291021,,*18","$GNRMC,110702,A,5204.5371,N,02111.1375,E,0.0619,23.978,291021,,*18","$GNRMC,110702,A,5204.5371,N,02111.1375,E,0.0619,23.978,291021,,*18","$GNRMC,110702,A,5204.5371,N,02111.1375,E,0.0619,23.978,291021,,*18","$GNRMC,110702,A,5204.5371,N,02111.1375,E,0.0619,23.978,291021,,*18","$GNRMC,110702,A,5204.5371,N,02111.1375,E,0.0619,23.978,291021,,*18","$GNRMC,110702,A,5204.5371,N,02111.1375,E,0.0619,23.978,291021,,*18","$GNRMC,110702,A,5204.5371,N,02111.1375,E,0.0619,23.978,291021,,*18","$GNRMC,110702,A,5204.5371,N,02111.1375,E,0.0619,23.978,291021,,*18","$GNRMC,110702,A,5204.5371,N,02111.1375,E,0.0619,23.978,291021,,*18","$GNRMC,110702,A,5204.5371,N,02111.1375,E,0.0619,23.978,291021,,*18","$GNRMC,110702,A,5204.5371,N,02111.1375,E,0.0619,23.978,291021,,*18","$GNRMC,110702,A,5204.5371,N,02111.1375,E,0.0619,23.978,291021,,*18","$GNRMC,110702,A,5204.5371,N,02111.1375,E,0.0619,23.978,291021,,*18","$GNRMC,110702,A,5204.5371,N,02111.1375,E,0.0619,23.978,291021,,*18","$GNRMC,110702,A,5204.5371,N,02111.1375,E,0.0619,23.978,291021,,*18","$GNRMC,110702,A,5204.5371,N,02111.1375,E,0.0619,23.978,291021,,*18","$GNRMC,110702,A,5204.5371,N,02111.1375,E,0.0619,23.978,291021,,*18","$GNRMC,110702,A,5204.5371,N,02111.1375,E,0.0619,23.978,291021,,*18","$GNRMC,110702,A,5204.5371,N,02111.1375,E,0.0619,23.978,291021,,*18","$GNRMC,110702,A,5204.5371,N,02111.1375,E,0.0619,23.978,291021,,*18","$GNRMC,110702,A,5204.5371,N,02111.1375,E,0.0619,23.978,291021,,*18","$GNRMC,110702,A,5204.5371,N,02111.1375,E,0.0619,23.978,291021,,*18","$GNRMC,110702,A,5204.5371,N,02111.1375,E,0.0619,23.978,291021,,*18","$GNRMC,110702,A,5204.5371,N,02111.1375,E,0.0619,23.978,291021,,*18","$GNRMC,110702,A,5204.5371,N,02111.1375,E,0.0619,23.978,291021,,*18","$GNRMC,110702,A,5204.5371,N,02111.1375,E,0.0619,23.978,291021,,*18","$GNRMC,110702,A,5204.5371,N,02111.1375,E,0.0619,23.978,291021,,*18","$GNRMC,110702,A,5204.5371,N,02111.1375,E,0.0619,23.978,291021,,*18","$GNRMC,110702,A,5204.5371,N,02111.1375,E,0.0619,23.978,291021,,*18","$GNRMC,110702,A,5204.5371,N,02111.1375,E,0.0619,23.978,291021,,*18","$GNRMC,110702,A,5204.5371,N,02111.1375,E,0.0619,23.978,291021,,*18","$GNRMC,110702,A,5204.5371,N,02111.1375,E,0.0619,23.978,291021,,*18","$GNRMC,110702,A,5204.5371,N,02111.1375,E,0.0619,23.978,291021,,*18","$GNRMC,110702,A,5204.5371,N,02111.1375,E,0.0619,23.978,291021,,*18","$GNRMC,110702,A,5204.5371,N,02111.1375,E,0.0619,23.978,291021,,*18","$GNRMC,110702,A,5204.5371,N,02111.1375,E,0.0619,23.978,291021,,*18","$GNRMC,110702,A,5204.5371,N,02111.1375,E,0.0619,23.978,291021,,*18","$GNRMC,110702,A,5204.5371,N,02111.1375,E,0.0619,23.978,291021,,*18","$GNRMC,110702,A,5204.5371,N,02111.1375,E,0.0619,23.978,291021,,*18","$GNRMC,110702,A,5204.5371,N,02111.1375,E,0.0619,23.978,291021,,*18","$GNRMC,110702,A,5204.5371,N,02111.1375,E,0.0619,23.978,291021,,*18","$GNRMC,110702,A,5204.5371,N,02111.1375,E,0.0619,23.978,291021,,*18","$GNRMC,110702,A,5204.5371,N,02111.1375,E,0.0619,23.978,291021,,*18","$GNRMC,110702,A,5204.5371,N,02111.1375,E,0.0619,23.978,291021,,*18","$GNRMC,110707,A,5204.5367,N,02111.1372,E,0.0621,261.095,291021,,*28","$GNRMC,110707,A,5204.5367,N,02111.1372,E,0.0621,261.095,291021,,*28","$GNRMC,110707,A,5204.5367,N,02111.1372,E,0.0621,261.095,291021,,*28","$GNRMC,110707,A,5204.5367,N,02111.1372,E,0.0621,261.095,291021,,*28","$GNRMC,110702,A,5204.5371,N,02111.1375,E,0.0619,23.978,291021,,*18","$GNRMC,110702,A,5204.5371,N,02111.1375,E,0.0619,23.978,291021,,*18","$GNRMC,110702,A,5204.5371,N,02111.1375,E,0.0619,23.978,291021,,*18","$GNRMC,110702,A,5204.5371,N,02111.1375,E,0.0619,23.978,291021,,*18","$GNRMC,110702,A,5204.5371,N,02111.1375,E,0.0619,23.978,291021,,*18","$GNRMC,110702,A,5204.5371,N,02111.1375,E,0.0619,23.978,291021,,*18","$GNRMC,110702,A,5204.5371,N,02111.1375,E,0.0619,23.978,291021,,*18","$GNRMC,110702,A,5204.5371,N,02111.1375,E,0.0619,23.978,291021,,*18","$GNRMC,110702,A,5204.5371,N,02111.1375,E,0.0619,23.978,291021,,*18","$GNRMC,110702,A,5204.5371,N,02111.1375,E,0.0619,23.978,291021,,*18","$GNRMC,110702,A,5204.5371,N,02111.1375,E,0.0619,23.978,291021,,*18","$GNRMC,110702,A,5204.5371,N,02111.1375,E,0.0619,23.978,291021,,*18","$GNRMC,110702,A,5204.5371,N,02111.1375,E,0.0619,23.978,291021,,*18","$GNRMC,110702,A,5204.5371,N,02111.1375,E,0.0619,23.978,291021,,*18","$GNRMC,110702,A,5204.5371,N,02111.1375,E,0.0619,23.978,291021,,*18","$GNRMC,110702,A,5204.5371,N,02111.1375,E,0.0619,23.978,291021,,*18","$GNRMC,110702,A,5204.5371,N,02111.1375,E,0.0619,23.978,291021,,*18","$GNRMC,110702,A,5204.5371,N,02111.1375,E,0.0619,23.978,291021,,*18","$GNRMC,110702,A,5204.5371,N,02111.1375,E,0.0619,23.978,291021,,*18","$GNRMC,110702,A,5204.5371,N,02111.1375,E,0.0619,23.978,291021,,*18","$GNRMC,110702,A,5204.5371,N,02111.1375,E,0.0619,23.978,291021,,*18","$GNRMC,110702,A,5204.5371,N,02111.1375,E,0.0619,23.978,291021,,*18","$GNRMC,110702,A,5204.5371,N,02111.1375,E,0.0619,23.978,291021,,*18","$GNRMC,110702,A,5204.5371,N,02111.1375,E,0.0619,23.978,291021,,*18","$GNRMC,110702,A,5204.5371,N,02111.1375,E,0.0619,23.978,291021,,*18","$GNRMC,110702,A,5204.5371,N,02111.1375,E,0.0619,23.978,291021,,*18"}
acceleration = {"-6.702384,0.536406,-7.182578","-6.702384,0.536406,-7.182578","-6.628830,0.537602,-7.254936","-6.549296,0.565708,-7.302776","-6.549296,0.565708,-7.302776","-6.580990,0.496938,-7.162246","-6.580990,0.496938,-7.162246","-6.580990,0.496938,-7.162246","-6.580990,0.496938,-7.162246","-6.575608,0.567502,-7.112014","-6.575608,0.567502,-7.112014","-6.575608,0.567502,-7.112014","-6.575608,0.567502,-7.112014","-6.575608,0.567502,-7.112014","-6.575608,0.567502,-7.112014","-6.652750,0.578266,-7.157462","-6.652750,0.578266,-7.157462","-6.652750,0.578266,-7.157462","-6.652750,0.578266,-7.157462","-6.521788,0.476008,-7.281846","-6.521788,0.476008,-7.281846","-6.426108,0.425776,-7.167628","-6.701786,0.548964,-7.143110","-6.519396,0.651222,-7.257328","-6.519396,0.651222,-7.257328","-6.519396,0.651222,-7.257328","-6.519396,0.651222,-7.257328","-6.519396,0.651222,-7.257328","-6.628830,0.537602,-7.254936","-6.628830,0.537602,-7.254936","-6.628830,0.537602,-7.254936","-6.628830,0.537602,-7.254936","-6.628830,0.537602,-7.254936","-6.628830,0.537602,-7.254936","-6.628830,0.537602,-7.254936","-6.549296,0.565708,-7.302776","-6.549296,0.565708,-7.302776","-6.549296,0.565708,-7.302776","-6.580990,0.496938,-7.162246","-6.580990,0.496938,-7.162246","-6.426108,0.425776,-7.167628","-6.680258,0.587834,-7.157462","-6.680258,0.587834,-7.157462","-6.680258,0.587834,-7.157462","-6.680258,0.587834,-7.157462","-6.424912,0.418600,-7.309952","-6.424912,0.418600,-7.309952","-6.424912,0.418600,-7.309952","-6.424912,0.418600,-7.309952","-6.424912,0.418600,-7.309952","-6.424912,0.418600,-7.309952","-6.789094,0.355212,-7.200518","-6.789094,0.355212,-7.200518","-6.789094,0.355212,-7.200518","-6.789094,0.355212,-7.200518","-6.652750,0.578266,-7.157462","-6.521788,0.476008,-7.281846","-6.521788,0.476008,-7.281846","-6.521788,0.476008,-7.281846","-6.521788,0.476008,-7.281846","-6.426108,0.425776,-7.167628","-6.426108,0.425776,-7.167628","-6.426108,0.425776,-7.167628","-6.426108,0.425776,-7.167628","-6.632418,0.654212,-7.229222","-6.632418,0.654212,-7.229222","-6.655740,0.610558,-7.323706","-6.655740,0.610558,-7.323706","-6.655740,0.610558,-7.323706","-6.655740,0.610558,-7.323706","-6.608498,0.532220,-7.186166","-6.608498,0.532220,-7.186166","-6.608498,0.532220,-7.186166","-6.608498,0.532220,-7.186166","-6.608498,0.532220,-7.186166","-6.701786,0.548964,-7.143110","-6.701786,0.548964,-7.143110","-6.701786,0.548964,-7.143110","-6.701786,0.548964,-7.143110","-6.701786,0.548964,-7.143110","-6.519396,0.651222,-7.257328"}
gyroscope = {"0.009027,-0.047736,0.045441","0.009027,-0.047736,0.045441","0.031059,-0.055386,0.039780","0.017748,-0.064413,0.040392","0.017748,-0.064413,0.040392","0.017136,-0.041310,0.044982","0.017136,-0.041310,0.044982","0.017136,-0.041310,0.044982","0.017136,-0.041310,0.044982","0.021114,-0.066861,0.051867","0.021114,-0.066861,0.051867","0.021114,-0.066861,0.051867","0.021114,-0.066861,0.051867","0.021114,-0.066861,0.051867","0.021114,-0.066861,0.051867","0.025857,-0.083997,0.060282","0.025857,-0.083997,0.060282","0.025857,-0.083997,0.060282","0.025857,-0.083997,0.060282","0.033048,-0.083997,0.051255","0.033048,-0.083997,0.051255","0.026928,-0.039321,0.043452","0.018819,-0.044370,0.058140","0.021114,-0.061353,0.039933","0.021114,-0.061353,0.039933","0.021114,-0.061353,0.039933","0.021114,-0.061353,0.039933","0.021114,-0.061353,0.039933","0.031059,-0.055386,0.039780","0.031059,-0.055386,0.039780","0.031059,-0.055386,0.039780","0.031059,-0.055386,0.039780","0.031059,-0.055386,0.039780","0.031059,-0.055386,0.039780","0.031059,-0.055386,0.039780","0.017748,-0.064413,0.040392","0.017748,-0.064413,0.040392","0.017748,-0.064413,0.040392","0.017136,-0.041310,0.044982","0.017136,-0.041310,0.044982","0.026928,-0.039321,0.043452","0.036414,-0.068238,0.048807","0.036414,-0.068238,0.048807","0.036414,-0.068238,0.048807","0.036414,-0.068238,0.048807","0.019431,-0.049266,0.035190","0.019431,-0.049266,0.035190","0.019431,-0.049266,0.035190","0.019431,-0.049266,0.035190","0.019431,-0.049266,0.035190","0.019431,-0.049266,0.035190","0.007956,-0.042228,0.064413","0.007956,-0.042228,0.064413","0.007956,-0.042228,0.064413","0.007956,-0.042228,0.064413","0.025857,-0.083997,0.060282","0.033048,-0.083997,0.051255","0.033048,-0.083997,0.051255","0.033048,-0.083997,0.051255","0.033048,-0.083997,0.051255","0.026928,-0.039321,0.043452","0.026928,-0.039321,0.043452","0.026928,-0.039321,0.043452","0.026928,-0.039321,0.043452","-0.000612,-0.041616,0.039168","-0.000612,-0.041616,0.039168","0.026928,-0.031977,0.042534","0.026928,-0.031977,0.042534","0.026928,-0.031977,0.042534","0.026928,-0.031977,0.042534","0.026163,-0.045135,0.040392","0.026163,-0.045135,0.040392","0.026163,-0.045135,0.040392","0.026163,-0.045135,0.040392","0.026163,-0.045135,0.040392","0.018819,-0.044370,0.058140","0.018819,-0.044370,0.058140","0.018819,-0.044370,0.058140","0.018819,-0.044370,0.058140","0.018819,-0.044370,0.058140","0.021114,-0.061353,0.039933"}
